{"type":"FeatureCollection", "features": [
{"type":"Feature","geometry":{"type":"Point","coordinates":[-56.0938445,-34.8750205,0]},"properties":{"name":"Familia De Los Santos","description":{"@type":"html","value":"Hogar: true<br>Dirección: Calle 5 y calle 3, Zona 3, Tira 35, Apto 5597, Av. Bolivia 255"},"styleUrl":"#icon-1603-A52714-labelson","icon-scale":1,"icon":"images/icon-1.png","Hogar":"1","Dirección":"Calle 5 y calle 3, Zona 3, Tira 35, Apto 5597, Av. Bolivia 255"}},
{"type":"Feature","geometry":{"type":"Point","coordinates":[-56.0948557,-34.8765322,0]},"properties":{"name":"Familia Núñez","description":{"@type":"html","value":"Hogar: true<br>Dirección: Av. Bolivia 2551, Block Q, Apto. 112"},"styleUrl":"#icon-1603-A52714-labelson","icon-scale":1,"icon":"images/icon-1.png","Hogar":"1","Dirección":"Av. Bolivia 2551, Block Q, Apto. 112"}},
{"type":"Feature","geometry":{"type":"Point","coordinates":[-56.0826355,-34.8766126,0]},"properties":{"name":"Gladys Rodríguez","description":{"@type":"html","value":"Hogar: true<br>Dirección: Padua 5881"},"styleUrl":"#icon-1603-A52714-labelson","icon-scale":1,"icon":"images/icon-1.png","Hogar":"1","Dirección":"Padua 5881"}},
{"type":"Feature","geometry":{"type":"Point","coordinates":[-56.074505,-34.8926901,0]},"properties":{"name":"Familia Vázquez","description":{"@type":"html","value":"Hogar: true<br>Dirección: Uspallata 1477"},"styleUrl":"#icon-1603-A52714-labelson","icon-scale":1,"icon":"images/icon-1.png","Hogar":"1","Dirección":"Uspallata 1477"}},
{"type":"Feature","geometry":{"type":"Point","coordinates":[-56.0775416,-34.8841518,0]},"properties":{"name":"Salón del Reino","description":{"@type":"html","value":"Hogar: true<br>Dirección: Av. Dr. Juan B. Alberdi 6076"},"styleUrl":"#icon-1603-A52714-labelson","icon-scale":1,"icon":"images/icon-1.png","Hogar":"1","Dirección":"Av. Dr. Juan B. Alberdi 6076"}},
{"type":"Feature","geometry":{"type":"Point","coordinates":[-56.0957735,-34.8852161,0]},"properties":{"name":"Av. Italia y Z. Felde","description":{"@type":"html","value":"Hogar: <br>Dirección: "},"styleUrl":"#icon-1899-A52714-labelson","icon-scale":1,"icon-offset":[32,64],"icon-offset-units":["pixels","insetPixels"],"icon":"images/icon-2.png","Hogar":"","Dirección":""}},
{"type":"Feature","geometry":{"type":"Point","coordinates":[-56.0919439,-34.8945578,0]},"properties":{"name":"Dr. A. Gallinal y Orinoco","description":{"@type":"html","value":"Hogar: <br>Dirección: "},"styleUrl":"#icon-1899-A52714-labelson","icon-scale":1,"icon-offset":[32,64],"icon-offset-units":["pixels","insetPixels"],"icon":"images/icon-2.png","Hogar":"","Dirección":""}},
{"type":"Feature","geometry":{"type":"Point","coordinates":[-56.0990192,-34.8688003,0]},"properties":{"name":"Familia Antón","description":{"@type":"html","value":"Hogar: true<br>Dirección: Vicente Martínez Cuitiño 5352 bis"},"styleUrl":"#icon-1603-A52714-labelson","icon-scale":1,"icon":"images/icon-1.png","Hogar":"1","Dirección":"Vicente Martínez Cuitiño 5352 bis"}},
{"type":"Feature","geometry":{"type":"Point","coordinates":[-56.0836782,-34.8825232,0]},"properties":{"name":"Av. Italia y Av. Bolivia","description":{"@type":"html","value":"Hogar: <br>Dirección: "},"styleUrl":"#icon-1899-A52714-labelson","icon-scale":1,"icon-offset":[32,64],"icon-offset-units":["pixels","insetPixels"],"icon":"images/icon-2.png","Hogar":"","Dirección":""}},
{"type":"Feature","geometry":{"type":"Point","coordinates":[-56.0870295,-34.8906456,0]},"properties":{"name":"Av. Rivera y Grito de Gloria","description":{"@type":"html","value":"Hogar: <br>Dirección: "},"styleUrl":"#icon-1899-A52714-labelson","icon-scale":1,"icon-offset":[32,64],"icon-offset-units":["pixels","insetPixels"],"icon":"images/icon-2.png","Hogar":"","Dirección":""}},
{"type":"Feature","geometry":{"type":"Point","coordinates":[-56.0805842,-34.8959816,0]},"properties":{"name":"Coimbra y Av. Gral. Paz","description":{"@type":"html","value":"Hogar: <br>Dirección: "},"styleUrl":"#icon-1899-A52714-labelson","icon-scale":1,"icon-offset":[32,64],"icon-offset-units":["pixels","insetPixels"],"icon":"images/icon-2.png","Hogar":"","Dirección":""}}
]}